{"countries": [{"CountryName":"Nauru","CapitalLatitude":-0.5477,"CapitalLongitude":166.920867,"CarbonEmission":4.021851008,"Population":11853.0},{"CountryName":"Afghanistan","CapitalLatitude":34.51666667,"CapitalLongitude":69.183333,"CarbonEmission":0.253727945,"Population":33370794.0},{"CountryName":"Albania","CapitalLatitude":41.31666667,"CapitalLongitude":19.816667,"CarbonEmission":1.90006971,"Population":2889104.0},{"CountryName":"Algeria","CapitalLatitude":36.75,"CapitalLongitude":3.05,"CarbonEmission":3.735802777,"Population":38923687.0},{"CountryName":"Andorra","CapitalLatitude":42.5,"CapitalLongitude":1.516667,"CarbonEmission":5.832906215,"Population":79213.0},{"CountryName":"Angola","CapitalLatitude":-8.833333333,"CapitalLongitude":13.216667,"CarbonEmission":1.664740736,"Population":26941779.0},{"CountryName":"Antigua and Barbuda","CapitalLatitude":17.11666667,"CapitalLongitude":-61.85,"CarbonEmission":5.704803267,"Population":92562.0},{"CountryName":"Argentina","CapitalLatitude":-34.58333333,"CapitalLongitude":-58.666667,"CarbonEmission":4.588229602,"Population":42669500.0},{"CountryName":"Armenia","CapitalLatitude":40.16666667,"CapitalLongitude":44.5,"CarbonEmission":1.898719374,"Population":2912403.0},{"CountryName":"Aruba","CapitalLatitude":12.51666667,"CapitalLongitude":-70.033333,"CarbonEmission":8.410064178,"Population":103774.0},{"CountryName":"Australia","CapitalLatitude":-35.26666667,"CapitalLongitude":149.133333,"CarbonEmission":15.39110908,"Population":23475686.0},{"CountryName":"Austria","CapitalLatitude":48.2,"CapitalLongitude":16.366667,"CarbonEmission":6.892179661,"Population":8546356.0},{"CountryName":"Azerbaijan","CapitalLatitude":40.38333333,"CapitalLongitude":49.866667,"CarbonEmission":3.920792371,"Population":9535079.0},{"CountryName":"Bahrain","CapitalLatitude":26.23333333,"CapitalLongitude":50.566667,"CarbonEmission":23.47736317,"Population":1336075.0},{"CountryName":"Bangladesh","CapitalLatitude":23.71666667,"CapitalLongitude":90.4,"CarbonEmission":0.477335997,"Population":154520167.0},{"CountryName":"Barbados","CapitalLatitude":13.1,"CapitalLongitude":-59.616667,"CarbonEmission":4.40310366,"Population":284825.0},{"CountryName":"Belarus","CapitalLatitude":53.9,"CapitalLongitude":27.566667,"CarbonEmission":6.628420401,"Population":9474511.0},{"CountryName":"Belgium","CapitalLatitude":50.83333333,"CapitalLongitude":4.333333,"CarbonEmission":8.347134375,"Population":11209057.0},{"CountryName":"Belize","CapitalLatitude":17.25,"CapitalLongitude":-88.766667,"CarbonEmission":1.400941234,"Population":353366.0},{"CountryName":"Benin","CapitalLatitude":6.483333333,"CapitalLongitude":2.616667,"CarbonEmission":0.522592065,"Population":10286842.0},{"CountryName":"Bermuda","CapitalLatitude":32.28333333,"CapitalLongitude":-64.783333,"CarbonEmission":9.964367957,"Population":65138.0},{"CountryName":"Bhutan","CapitalLatitude":27.46666667,"CapitalLongitude":89.633333,"CarbonEmission":1.443226953,"Population":719056.0},{"CountryName":"Bolivia","CapitalLatitude":-16.5,"CapitalLongitude":-68.15,"CarbonEmission":1.898829283,"Population":10706517.0},{"CountryName":"Bosnia and Herzegovina","CapitalLatitude":43.86666667,"CapitalLongitude":18.416667,"CarbonEmission":5.578265037,"Population":3482104.0},{"CountryName":"Botswana","CapitalLatitude":-24.63333333,"CapitalLongitude":25.9,"CarbonEmission":3.283177265,"Population":2088614.0},{"CountryName":"Brazil","CapitalLatitude":-15.78333333,"CapitalLongitude":-47.916667,"CarbonEmission":2.631289885,"Population":202763735.0},{"CountryName":"British Virgin Islands","CapitalLatitude":18.41666667,"CapitalLongitude":-64.616667,"CarbonEmission":7.336782918,"Population":28989.0},{"CountryName":"Brunei Darussalam","CapitalLatitude":4.883333333,"CapitalLongitude":114.933333,"CarbonEmission":22.09494374,"Population":409769.0},{"CountryName":"Bulgaria","CapitalLatitude":42.68333333,"CapitalLongitude":23.316667,"CarbonEmission":5.859433041,"Population":7223938.0},{"CountryName":"Burkina Faso","CapitalLatitude":12.36666667,"CapitalLongitude":-1.516667,"CarbonEmission":0.168273976,"Population":17586017.0},{"CountryName":"Myanmar","CapitalLatitude":16.8,"CapitalLongitude":96.15,"CarbonEmission":0.312686183,"Population":52280807.0},{"CountryName":"Burundi","CapitalLatitude":-3.366666667,"CapitalLongitude":29.35,"CarbonEmission":0.039112493,"Population":9844297.0},{"CountryName":"Cambodia","CapitalLatitude":11.55,"CapitalLongitude":104.916667,"CarbonEmission":0.437653585,"Population":15274503.0},{"CountryName":"Cameroon","CapitalLatitude":3.866666667,"CapitalLongitude":11.516667,"CarbonEmission":0.299738143,"Population":22681858.0},{"CountryName":"Canada","CapitalLatitude":45.41666667,"CapitalLongitude":-75.7,"CarbonEmission":15.25547233,"Population":35437435.0},{"CountryName":"Cayman Islands","CapitalLatitude":19.3,"CapitalLongitude":-81.383333,"CarbonEmission":8.979473442,"Population":60848.0},{"CountryName":"Central African Republic","CapitalLatitude":4.366666667,"CapitalLongitude":18.583333,"CarbonEmission":0.064892841,"Population":4464175.0},{"CountryName":"Chad","CapitalLatitude":12.1,"CapitalLongitude":15.033333,"CarbonEmission":0.073267221,"Population":13663559.0},{"CountryName":"Chile","CapitalLatitude":-33.45,"CapitalLongitude":-70.666667,"CarbonEmission":4.454138162,"Population":17758959.0},{"CountryName":"China","CapitalLatitude":39.91666667,"CapitalLongitude":116.383333,"CarbonEmission":7.543907641,"Population":1364270000.0},{"CountryName":"Colombia","CapitalLatitude":4.6,"CapitalLongitude":-74.083333,"CarbonEmission":1.845535015,"Population":46967706.0},{"CountryName":"Comoros","CapitalLatitude":-11.7,"CapitalLongitude":43.233333,"CarbonEmission":0.202812784,"Population":759390.0},{"CountryName":"Costa Rica","CapitalLatitude":9.933333333,"CapitalLongitude":-84.083333,"CarbonEmission":1.635675761,"Population":4795396.0},{"CountryName":"Cote d'Ivoire","CapitalLatitude":6.816666667,"CapitalLongitude":-5.266667,"CarbonEmission":0.489631014,"Population":22647683.0},{"CountryName":"Croatia","CapitalLatitude":45.8,"CapitalLongitude":16.0,"CarbonEmission":3.988513088,"Population":4238389.0},{"CountryName":"Cuba","CapitalLatitude":23.11666667,"CapitalLongitude":-82.35,"CarbonEmission":2.443066279,"Population":11306902.0},{"CountryName":"Cyprus","CapitalLatitude":35.16666667,"CapitalLongitude":33.366667,"CarbonEmission":5.260461605,"Population":1152285.0},{"CountryName":"Czech Republic","CapitalLatitude":50.08333333,"CapitalLongitude":14.466667,"CarbonEmission":9.231128627,"Population":10525347.0},{"CountryName":"Denmark","CapitalLatitude":55.66666667,"CapitalLongitude":12.583333,"CarbonEmission":5.873333894,"Population":5643475.0},{"CountryName":"Djibouti","CapitalLatitude":11.58333333,"CapitalLongitude":43.15,"CarbonEmission":0.681419523,"Population":898696.0},{"CountryName":"Dominica","CapitalLatitude":15.3,"CapitalLongitude":-61.4,"CarbonEmission":2.476134206,"Population":71085.0},{"CountryName":"Dominican Republic","CapitalLatitude":18.46666667,"CapitalLongitude":-69.9,"CarbonEmission":2.178516992,"Population":10165178.0},{"CountryName":"Ecuador","CapitalLatitude":-0.216666667,"CapitalLongitude":-78.5,"CarbonEmission":2.893262958,"Population":15951838.0},{"CountryName":"El Salvador","CapitalLatitude":13.7,"CapitalLongitude":-89.2,"CarbonEmission":0.998428944,"Population":6295128.0},{"CountryName":"Equatorial Guinea","CapitalLatitude":3.75,"CapitalLongitude":8.783333,"CarbonEmission":6.512062095,"Population":1122276.0},{"CountryName":"Estonia","CapitalLatitude":59.43333333,"CapitalLongitude":24.716667,"CarbonEmission":13.82505125,"Population":1314545.0},{"CountryName":"Ethiopia","CapitalLatitude":9.033333333,"CapitalLongitude":38.7,"CarbonEmission":0.126763767,"Population":98094253.0},{"CountryName":"Faroe Islands","CapitalLatitude":62.0,"CapitalLongitude":-6.766667,"CarbonEmission":12.46290659,"Population":47960.0},{"CountryName":"Fiji","CapitalLatitude":-18.13333333,"CapitalLongitude":178.416667,"CarbonEmission":1.900256563,"Population":866453.0},{"CountryName":"Finland","CapitalLatitude":60.16666667,"CapitalLongitude":24.933333,"CarbonEmission":8.647964154,"Population":5461512.0},{"CountryName":"France","CapitalLatitude":48.86666667,"CapitalLongitude":2.333333,"CarbonEmission":4.573459729,"Population":66312067.0},{"CountryName":"French Polynesia","CapitalLatitude":-17.53333333,"CapitalLongitude":-149.566667,"CarbonEmission":2.712747281,"Population":271705.0},{"CountryName":"Gabon","CapitalLatitude":0.383333333,"CapitalLongitude":9.45,"CarbonEmission":2.826459284,"Population":1883800.0},{"CountryName":"Georgia","CapitalLatitude":41.68333333,"CapitalLongitude":44.833333,"CarbonEmission":2.41448868,"Population":3719414.0},{"CountryName":"Germany","CapitalLatitude":52.51666667,"CapitalLongitude":13.4,"CarbonEmission":8.895302257,"Population":80982500.0},{"CountryName":"Ghana","CapitalLatitude":5.55,"CapitalLongitude":-0.216667,"CarbonEmission":0.560735246,"Population":27224472.0},{"CountryName":"Gibraltar","CapitalLatitude":36.13333333,"CapitalLongitude":-5.35,"CarbonEmission":15.65746479,"Population":33725.0},{"CountryName":"Greece","CapitalLatitude":37.98333333,"CapitalLongitude":23.733333,"CarbonEmission":6.19952668,"Population":10892413.0},{"CountryName":"Greenland","CapitalLatitude":64.18333333,"CapitalLongitude":-51.75,"CarbonEmission":8.989181988,"Population":56295.0},{"CountryName":"Grenada","CapitalLatitude":12.05,"CapitalLongitude":-61.75,"CarbonEmission":2.155038475,"Population":108902.0},{"CountryName":"Guatemala","CapitalLatitude":14.61666667,"CapitalLongitude":-90.516667,"CarbonEmission":0.911580226,"Population":15306316.0},{"CountryName":"Guinea","CapitalLatitude":9.5,"CapitalLongitude":-13.7,"CarbonEmission":0.213752571,"Population":11150977.0},{"CountryName":"Guinea-Bissau","CapitalLatitude":11.85,"CapitalLongitude":-15.583333,"CarbonEmission":0.160335469,"Population":1692439.0},{"CountryName":"Guyana","CapitalLatitude":6.8,"CapitalLongitude":-58.15,"CarbonEmission":2.632392779,"Population":763380.0},{"CountryName":"Haiti","CapitalLatitude":18.53333333,"CapitalLongitude":-72.333333,"CarbonEmission":0.266273568,"Population":10549008.0},{"CountryName":"Honduras","CapitalLatitude":14.1,"CapitalLongitude":-87.216667,"CarbonEmission":1.061742673,"Population":8955589.0},{"CountryName":"Hungary","CapitalLatitude":47.5,"CapitalLongitude":19.083333,"CarbonEmission":4.190127409,"Population":9866468.0},{"CountryName":"Iceland","CapitalLatitude":64.15,"CapitalLongitude":-21.95,"CarbonEmission":6.059657407,"Population":327386.0},{"CountryName":"India","CapitalLatitude":28.6,"CapitalLongitude":77.2,"CarbonEmission":1.723311783,"Population":1295604184.0},{"CountryName":"Indonesia","CapitalLatitude":-6.166666667,"CapitalLongitude":106.816667,"CarbonEmission":1.450032294,"Population":255129004.0},{"CountryName":"Iraq","CapitalLatitude":33.33333333,"CapitalLongitude":44.4,"CarbonEmission":4.842168931,"Population":34411951.0},{"CountryName":"Ireland","CapitalLatitude":53.31666667,"CapitalLongitude":-6.233333,"CarbonEmission":7.300555849,"Population":4657740.0},{"CountryName":"Israel","CapitalLatitude":31.76666667,"CapitalLongitude":35.233333,"CarbonEmission":7.653847633,"Population":8215700.0},{"CountryName":"Italy","CapitalLatitude":41.9,"CapitalLongitude":12.483333,"CarbonEmission":5.270866786,"Population":60789140.0},{"CountryName":"Jamaica","CapitalLatitude":18.0,"CapitalLongitude":-76.8,"CarbonEmission":2.536806259,"Population":2875136.0},{"CountryName":"Japan","CapitalLatitude":35.68333333,"CapitalLongitude":139.75,"CarbonEmission":9.480766374,"Population":127276000.0},{"CountryName":"Jordan","CapitalLatitude":31.95,"CapitalLongitude":35.933333,"CarbonEmission":2.978804489,"Population":8920049.0},{"CountryName":"Kazakhstan","CapitalLatitude":51.16666667,"CapitalLongitude":71.416667,"CarbonEmission":14.36783614,"Population":17288285.0},{"CountryName":"Kenya","CapitalLatitude":-1.283333333,"CapitalLongitude":36.816667,"CarbonEmission":0.309143145,"Population":46699981.0},{"CountryName":"Kiribati","CapitalLatitude":-0.883333333,"CapitalLongitude":169.533333,"CarbonEmission":0.536351254,"Population":109391.0},{"CountryName":"Kosovo","CapitalLatitude":42.66666667,"CapitalLongitude":21.166667,"CarbonEmission":4.005282521,"Population":1812771.0},{"CountryName":"Kuwait","CapitalLatitude":29.36666667,"CapitalLongitude":47.966667,"CarbonEmission":23.94268372,"Population":3690941.0},{"CountryName":"Latvia","CapitalLatitude":56.95,"CapitalLongitude":24.1,"CarbonEmission":3.474283046,"Population":1993782.0},{"CountryName":"Lebanon","CapitalLatitude":33.86666667,"CapitalLongitude":35.5,"CarbonEmission":3.843598231,"Population":6262410.0},{"CountryName":"Lesotho","CapitalLatitude":-29.31666667,"CapitalLongitude":27.483333,"CarbonEmission":1.18977047,"Population":2043437.0},{"CountryName":"Liberia","CapitalLatitude":6.3,"CapitalLongitude":-10.8,"CarbonEmission":0.280944282,"Population":4359505.0},{"CountryName":"Libya","CapitalLatitude":32.88333333,"CapitalLongitude":13.166667,"CarbonEmission":9.350737979,"Population":6362037.0},{"CountryName":"Liechtenstein","CapitalLatitude":47.13333333,"CapitalLongitude":9.516667,"CarbonEmission":1.280686672,"Population":37223.0},{"CountryName":"Lithuania","CapitalLatitude":54.68333333,"CapitalLongitude":25.316667,"CarbonEmission":4.378090123,"Population":2932367.0},{"CountryName":"Luxembourg","CapitalLatitude":49.6,"CapitalLongitude":6.116667,"CarbonEmission":17.36871291,"Population":556319.0},{"CountryName":"Madagascar","CapitalLatitude":-18.91666667,"CapitalLongitude":47.516667,"CarbonEmission":0.139903171,"Population":23589887.0},{"CountryName":"Malawi","CapitalLatitude":-13.96666667,"CapitalLongitude":33.783333,"CarbonEmission":0.064607656,"Population":16289540.0},{"CountryName":"Malaysia","CapitalLatitude":3.166666667,"CapitalLongitude":101.7,"CarbonEmission":8.125176355,"Population":29866559.0},{"CountryName":"Maldives","CapitalLatitude":4.166666667,"CapitalLongitude":73.5,"CarbonEmission":3.026224383,"Population":435015.0},{"CountryName":"Mali","CapitalLatitude":12.65,"CapitalLongitude":-8.0,"CarbonEmission":0.176050093,"Population":16934220.0},{"CountryName":"Malta","CapitalLatitude":35.88333333,"CapitalLongitude":14.5,"CarbonEmission":5.400613957,"Population":434558.0},{"CountryName":"Marshall Islands","CapitalLatitude":7.1,"CapitalLongitude":171.383333,"CarbonEmission":2.501145525,"Population":57179.0},{"CountryName":"Mauritania","CapitalLatitude":18.06666667,"CapitalLongitude":-15.966667,"CarbonEmission":0.746292957,"Population":3930896.0},{"CountryName":"Mauritius","CapitalLatitude":-20.15,"CapitalLongitude":57.483333,"CarbonEmission":3.338569663,"Population":1260934.0},{"CountryName":"Mexico","CapitalLatitude":19.43333333,"CapitalLongitude":-99.133333,"CarbonEmission":4.000652984,"Population":120355128.0},{"CountryName":"Moldova","CapitalLatitude":47.0,"CapitalLongitude":28.85,"CarbonEmission":1.725073242,"Population":2856950.0},{"CountryName":"Mongolia","CapitalLatitude":47.91666667,"CapitalLongitude":106.916667,"CarbonEmission":10.07889064,"Population":2940108.0},{"CountryName":"Montenegro","CapitalLatitude":42.43333333,"CapitalLongitude":19.266667,"CarbonEmission":3.390947396,"Population":621810.0},{"CountryName":"Morocco","CapitalLatitude":34.01666667,"CapitalLongitude":-6.816667,"CarbonEmission":1.751330788,"Population":34192347.0},{"CountryName":"Mozambique","CapitalLatitude":-25.95,"CapitalLongitude":32.583333,"CarbonEmission":0.320857023,"Population":26286163.0},{"CountryName":"Namibia","CapitalLatitude":-22.56666667,"CapitalLongitude":17.083333,"CarbonEmission":1.645240892,"Population":2273430.0},{"CountryName":"Nepal","CapitalLatitude":27.71666667,"CapitalLongitude":85.316667,"CarbonEmission":0.298463303,"Population":26906926.0},{"CountryName":"Netherlands","CapitalLatitude":52.35,"CapitalLongitude":4.916667,"CarbonEmission":10.01385146,"Population":16865008.0},{"CountryName":"New Caledonia","CapitalLatitude":-22.26666667,"CapitalLongitude":166.45,"CarbonEmission":18.23581794,"Population":268050.0},{"CountryName":"New Zealand","CapitalLatitude":-41.3,"CapitalLongitude":174.783333,"CarbonEmission":7.684949553,"Population":4509700.0},{"CountryName":"Nicaragua","CapitalLatitude":12.13333333,"CapitalLongitude":-86.25,"CarbonEmission":0.761728045,"Population":6142733.0},{"CountryName":"Niger","CapitalLatitude":13.51666667,"CapitalLongitude":2.116667,"CarbonEmission":0.106730938,"Population":19240157.0},{"CountryName":"Nigeria","CapitalLatitude":9.083333333,"CapitalLongitude":7.533333,"CarbonEmission":0.737682613,"Population":176404902.0},{"CountryName":"Norway","CapitalLatitude":59.91666667,"CapitalLongitude":10.75,"CarbonEmission":9.328763622,"Population":5137232.0},{"CountryName":"Oman","CapitalLatitude":23.61666667,"CapitalLongitude":58.583333,"CarbonEmission":15.20154274,"Population":4027260.0},{"CountryName":"Pakistan","CapitalLatitude":33.68333333,"CapitalLongitude":73.05,"CarbonEmission":0.933991503,"Population":195306825.0},{"CountryName":"Palau","CapitalLatitude":7.483333333,"CapitalLongitude":134.633333,"CarbonEmission":12.69074095,"Population":17626.0},{"CountryName":"Panama","CapitalLatitude":8.966666667,"CapitalLongitude":-79.533333,"CarbonEmission":2.847076691,"Population":3901315.0},{"CountryName":"Papua New Guinea","CapitalLatitude":-9.45,"CapitalLongitude":147.183333,"CarbonEmission":0.739239066,"Population":7946731.0},{"CountryName":"Paraguay","CapitalLatitude":-25.26666667,"CapitalLongitude":-57.666667,"CarbonEmission":0.864029477,"Population":6599526.0},{"CountryName":"Peru","CapitalLatitude":-12.05,"CapitalLongitude":-77.05,"CarbonEmission":1.705884134,"Population":30090359.0},{"CountryName":"Philippines","CapitalLatitude":14.6,"CapitalLongitude":120.966667,"CarbonEmission":1.039832564,"Population":100513138.0},{"CountryName":"Poland","CapitalLatitude":52.25,"CapitalLongitude":21.0,"CarbonEmission":7.522360976,"Population":38011735.0},{"CountryName":"Portugal","CapitalLatitude":38.71666667,"CapitalLongitude":-9.133333,"CarbonEmission":4.293477531,"Population":10401062.0},{"CountryName":"Qatar","CapitalLatitude":25.28333333,"CapitalLongitude":51.533333,"CarbonEmission":43.52329337,"Population":2459198.0},{"CountryName":"Romania","CapitalLatitude":44.43333333,"CapitalLongitude":26.1,"CarbonEmission":3.490367336,"Population":19908979.0},{"CountryName":"Russian Federation","CapitalLatitude":55.75,"CapitalLongitude":37.6,"CarbonEmission":12.07751769,"Population":143819666.0},{"CountryName":"Rwanda","CapitalLatitude":-1.95,"CapitalLongitude":30.05,"CarbonEmission":0.07642592,"Population":11083635.0},{"CountryName":"Samoa","CapitalLatitude":-13.81666667,"CapitalLongitude":-171.766667,"CarbonEmission":1.087388995,"Population":192221.0},{"CountryName":"Sao Tome and Principe","CapitalLatitude":0.333333333,"CapitalLongitude":6.733333,"CarbonEmission":0.580793656,"Population":195727.0},{"CountryName":"Saudi Arabia","CapitalLatitude":24.65,"CapitalLongitude":46.7,"CarbonEmission":19.44066648,"Population":30916994.0},{"CountryName":"Senegal","CapitalLatitude":14.73333333,"CapitalLongitude":-17.633333,"CarbonEmission":0.661495375,"Population":14174731.0},{"CountryName":"Serbia","CapitalLatitude":44.83333333,"CapitalLongitude":20.5,"CarbonEmission":5.238295195,"Population":7130576.0},{"CountryName":"Seychelles","CapitalLatitude":-4.616666667,"CapitalLongitude":55.45,"CarbonEmission":5.338401252,"Population":91359.0},{"CountryName":"Sierra Leone","CapitalLatitude":8.483333333,"CapitalLongitude":-13.233333,"CarbonEmission":0.186560088,"Population":7017144.0},{"CountryName":"Singapore","CapitalLatitude":1.283333333,"CapitalLongitude":103.85,"CarbonEmission":10.35594282,"Population":5469724.0},{"CountryName":"Slovenia","CapitalLatitude":46.05,"CapitalLongitude":14.516667,"CarbonEmission":6.053631946,"Population":2061980.0},{"CountryName":"Solomon Islands","CapitalLatitude":-9.433333333,"CapitalLongitude":159.95,"CarbonEmission":0.33104744,"Population":587079.0},{"CountryName":"Somalia","CapitalLatitude":2.066666667,"CapitalLongitude":45.333333,"CarbonEmission":0.046986287,"Population":13423576.0},{"CountryName":"South Africa","CapitalLatitude":-25.7,"CapitalLongitude":28.216667,"CarbonEmission":8.882321727,"Population":54545991.0},{"CountryName":"South Sudan","CapitalLatitude":4.85,"CapitalLongitude":31.616667,"CarbonEmission":0.145569875,"Population":10554883.0},{"CountryName":"Spain","CapitalLatitude":40.4,"CapitalLongitude":-3.683333,"CarbonEmission":5.033824487,"Population":46480882.0},{"CountryName":"Sri Lanka","CapitalLatitude":6.916666667,"CapitalLongitude":79.833333,"CarbonEmission":0.862657426,"Population":20778000.0},{"CountryName":"Sudan","CapitalLatitude":15.6,"CapitalLongitude":32.533333,"CarbonEmission":0.417028724,"Population":37977655.0},{"CountryName":"Suriname","CapitalLatitude":5.833333333,"CapitalLongitude":-55.166667,"CarbonEmission":4.056195981,"Population":553278.0},{"CountryName":"Sweden","CapitalLatitude":59.33333333,"CapitalLongitude":18.05,"CarbonEmission":4.484611458,"Population":9696110.0},{"CountryName":"Switzerland","CapitalLatitude":46.91666667,"CapitalLongitude":7.466667,"CarbonEmission":4.357240126,"Population":8188649.0},{"CountryName":"Tajikistan","CapitalLatitude":38.55,"CapitalLongitude":68.766667,"CarbonEmission":0.559858657,"Population":8252833.0},{"CountryName":"Tanzania","CapitalLatitude":-6.8,"CapitalLongitude":39.283333,"CarbonEmission":0.231426985,"Population":49959822.0},{"CountryName":"Thailand","CapitalLatitude":13.75,"CapitalLongitude":100.516667,"CarbonEmission":4.105519506,"Population":68438730.0},{"CountryName":"Timor-Leste","CapitalLatitude":-8.583333333,"CapitalLongitude":125.6,"CarbonEmission":0.437168056,"Population":1174331.0},{"CountryName":"Togo","CapitalLatitude":6.116666667,"CapitalLongitude":1.216667,"CarbonEmission":0.362693064,"Population":7137997.0},{"CountryName":"Tonga","CapitalLatitude":-21.13333333,"CapitalLongitude":-175.2,"CarbonEmission":1.125202914,"Population":101028.0},{"CountryName":"Trinidad and Tobago","CapitalLatitude":10.65,"CapitalLongitude":-61.516667,"CarbonEmission":33.96103108,"Population":1362342.0},{"CountryName":"Tunisia","CapitalLatitude":36.8,"CapitalLongitude":10.183333,"CarbonEmission":2.605932406,"Population":11063201.0},{"CountryName":"Turkey","CapitalLatitude":39.93333333,"CapitalLongitude":32.866667,"CarbonEmission":4.478823888,"Population":77231907.0},{"CountryName":"Turkmenistan","CapitalLatitude":37.95,"CapitalLongitude":58.383333,"CarbonEmission":12.51776695,"Population":5466328.0},{"CountryName":"Turks and Caicos Islands","CapitalLatitude":21.46666667,"CapitalLongitude":-71.133333,"CarbonEmission":5.59863157,"Population":35369.0},{"CountryName":"Tuvalu","CapitalLatitude":-8.516666667,"CapitalLongitude":179.216667,"CarbonEmission":1.002643092,"Population":10972.0},{"CountryName":"Uganda","CapitalLatitude":0.316666667,"CapitalLongitude":32.55,"CarbonEmission":0.129345873,"Population":36912148.0},{"CountryName":"Ukraine","CapitalLatitude":50.43333333,"CapitalLongitude":30.516667,"CarbonEmission":5.046562571,"Population":45272156.0},{"CountryName":"United Arab Emirates","CapitalLatitude":24.46666667,"CapitalLongitude":54.366667,"CarbonEmission":24.54304265,"Population":9214175.0},{"CountryName":"United Kingdom","CapitalLatitude":51.5,"CapitalLongitude":-0.083333,"CarbonEmission":6.497340931,"Population":64602298.0},{"CountryName":"United States","CapitalLatitude":38.883333,"CapitalLongitude":-77.0,"CarbonEmission":16.41657591,"Population":318301008.0},{"CountryName":"Uruguay","CapitalLatitude":-34.85,"CapitalLongitude":-56.166667,"CarbonEmission":1.984240835,"Population":3400434.0},{"CountryName":"Uzbekistan","CapitalLatitude":41.31666667,"CapitalLongitude":69.25,"CarbonEmission":3.420722746,"Population":30757700.0},{"CountryName":"Vanuatu","CapitalLatitude":-17.73333333,"CapitalLongitude":168.316667,"CarbonEmission":0.583633966,"Population":263888.0},{"CountryName":"Vietnam","CapitalLatitude":21.03333333,"CapitalLongitude":105.85,"CarbonEmission":1.824531973,"Population":91714595.0},{"CountryName":"Zambia","CapitalLatitude":-15.41666667,"CapitalLongitude":28.283333,"CarbonEmission":0.292412222,"Population":15399753.0},{"CountryName":"Zimbabwe","CapitalLatitude":-17.81666667,"CapitalLongitude":31.033333,"CarbonEmission":0.891738608,"Population":13586681.0},{"CountryName":"Hong Kong SAR, China","CapitalLatitude":22.3193,"CapitalLongitude":114.1694,"CarbonEmission":6.3281682,"Population":7229500.0},{"CountryName":"Macao SAR, China","CapitalLatitude":22.1987,"CapitalLongitude":113.5439,"CarbonEmission":2.671617464,"Population":590208.0}]}